[
	{"id": "1", "name":"阿拉善盟","lng":104.850498,"lat":39.801568,"pic":"1.jpg"},
	{"id": "2", "name":"阿拉善盟","lng":100.876681,"lat":40.254163,"pic":"2.jpg"},
	{"id": "3", "name":"赤峰市","lng":118.685265,"lat":44.454626,"pic":"3.jpg"},
	{"id": "4", "name":"甘孜藏族自治州","lng":99.625665,"lat":31.086319,"pic":"4.jpg"},
	{"id": "5", "name":"海西蒙古族藏族自治州","lng":97.859525,"lat":37.376066,"pic":"5.jpg"},
	{"id": "6", "name":"林芝地区","lng":93.370584,"lat":30.259366,"pic":"6.jpg"},
	{"id": "7", "name":"普洱市","lng":101.391806,"lat":23.839887,"pic":"3.jpg"}
]